[
    {
        "city": "",
        "state": "",
        "country": "USA",
        "latitude": 39.7837304,
        "longitude": -100.445882
    },
    {
        "city": "",
        "state": "",
        "country": ""
    },
    {
        "city": "Lansing",
        "state": "Michigan",
        "country": "USA",
        "latitude": 42.7337712,
        "longitude": -84.5553805
    },
    {
        "city": "Bangalore",
        "state": "Karnataka",
        "country": "India",
        "latitude": 12.9767936,
        "longitude": 77.590082
    },
    {
        "city": "",
        "state": "",
        "country": "Sweden",
        "latitude": 59.6749712,
        "longitude": 14.5208584
    },
    {
        "city": "",
        "state": "",
        "country": "India",
        "latitude": 22.3511148,
        "longitude": 78.6677428
    },
    {
        "city": "",
        "state": "",
        "country": "Germany",
        "latitude": 51.1638175,
        "longitude": 10.4478313
    },
    {
        "city": "",
        "state": "",
        "country": "Ireland",
        "latitude": 52.865196,
        "longitude": -7.9794599
    },
    {
        "city": "",
        "state": "",
        "country": "Italy",
        "latitude": 42.6384261,
        "longitude": 12.674297
    },
    {
        "city": "",
        "state": "",
        "country": "India",
        "latitude": 22.3511148,
        "longitude": 78.6677428
    },
    {
        "city": "",
        "state": "",
        "country": ""
    },
    {
        "city": "",
        "state": "",
        "country": ""
    },
    {
        "city": "",
        "state": "",
        "country": ""
    },
    {
        "city": "Buffalo",
        "state": "New York",
        "country": "",
        "latitude": 42.8867166,
        "longitude": -78.8783922
    },
    {
        "city": "Lansing",
        "state": "Michigan",
        "country": "USA",
        "latitude": 42.7337712,
        "longitude": -84.5553805
    },
    {
        "city": "",
        "state": "",
        "country": ""
    },
    {
        "city": "",
        "state": "",
        "country": ""
    },
    {
        "city": "",
        "state": "",
        "country": ""
    },
    {
        "city": "",
        "state": "",
        "country": ""
    },
    {
        "city": "",
        "state": "",
        "country": ""
    },
    {
        "city": "Darmstadt",
        "state": "Hessen",
        "country": "Germany",
        "latitude": 49.8851869,
        "longitude": 8.6736295
    },
    {
        "city": "",
        "state": "",
        "country": "India",
        "latitude": 22.3511148,
        "longitude": 78.6677428
    },
    {
        "city": "Pune",
        "state": "Maharashtra",
        "country": "India",
        "latitude": 18.521428,
        "longitude": 73.8544541
    },
    {
        "city": "",
        "state": "",
        "country": ""
    },
    {
        "city": "",
        "state": "",
        "country": ""
    },
    {
        "city": "Nagpur",
        "state": "Maharashtra",
        "country": "India",
        "latitude": 21.1498134,
        "longitude": 79.0820556
    },
    {
        "city": "",
        "state": "",
        "country": ""
    },
    {
        "city": "",
        "state": "",
        "country": "China",
        "latitude": 35.000074,
        "longitude": 104.999927
    },
    {
        "city": "New Delhi",
        "state": "Delhi",
        "country": "India",
        "latitude": 28.6138954,
        "longitude": 77.2090057
    },
    {
        "city": "",
        "state": "",
        "country": "Argentina",
        "latitude": -34.9964963,
        "longitude": -64.9672817
    },
    {
        "city": "",
        "state": "",
        "country": ""
    },
    {
        "city": "",
        "state": "",
        "country": ""
    },
    {
        "city": "",
        "state": "",
        "country": ""
    },
    {
        "city": "",
        "state": "",
        "country": "Lithuania",
        "latitude": 55.3500003,
        "longitude": 23.7499997
    },
    {
        "city": "",
        "state": "",
        "country": "Greece",
        "latitude": 38.9953683,
        "longitude": 21.9877132
    },
    {
        "city": "",
        "state": "Rajasthan",
        "country": "India",
        "latitude": 26.8105777,
        "longitude": 73.7684549
    },
    {
        "city": "Dublin",
        "state": "",
        "country": "Ireland",
        "latitude": 53.3493795,
        "longitude": -6.2605593
    },
    {
        "city": "",
        "state": "",
        "country": ""
    },
    {
        "city": "",
        "state": "",
        "country": "India",
        "latitude": 22.3511148,
        "longitude": 78.6677428
    },
    {
        "city": "Coventry",
        "state": "",
        "country": "UK",
        "latitude": 52.4081812,
        "longitude": -1.510477
    },
    {
        "city": "",
        "state": "",
        "country": ""
    },
    {
        "city": "",
        "state": "",
        "country": ""
    },
    {
        "city": "Albany",
        "state": "California",
        "country": "USA",
        "latitude": 37.88687,
        "longitude": -122.2977475
    },
    {
        "city": "",
        "state": "",
        "country": ""
    },
    {
        "city": "",
        "state": "",
        "country": ""
    },
    {
        "city": "",
        "state": "",
        "country": "India",
        "latitude": 22.3511148,
        "longitude": 78.6677428
    },
    {
        "city": "",
        "state": "",
        "country": "USA",
        "latitude": 39.7837304,
        "longitude": -100.445882
    },
    {
        "city": "Patna",
        "state": "Bihar",
        "country": "India",
        "latitude": 25.6093239,
        "longitude": 85.1235252
    },
    {
        "city": "",
        "state": "",
        "country": ""
    },
    {
        "city": "",
        "state": "",
        "country": "USA",
        "latitude": 39.7837304,
        "longitude": -100.445882
    },
    {
        "city": "",
        "state": "California",
        "country": "USA",
        "latitude": 36.7014631,
        "longitude": -118.755997
    },
    {
        "city": "",
        "state": "",
        "country": ""
    },
    {
        "city": "",
        "state": "",
        "country": ""
    },
    {
        "city": "Munich",
        "state": "Bavaria",
        "country": "Germany",
        "latitude": 48.1371079,
        "longitude": 11.5753822
    },
    {
        "city": "",
        "state": "",
        "country": "India",
        "latitude": 22.3511148,
        "longitude": 78.6677428
    },
    {
        "city": "Jaipur",
        "state": "Rajasthan",
        "country": "India",
        "latitude": 26.9154576,
        "longitude": 75.8189817
    },
    {
        "city": "",
        "state": "",
        "country": ""
    },
    {
        "city": "",
        "state": "",
        "country": ""
    },
    {
        "city": "",
        "state": "",
        "country": ""
    },
    {
        "city": "",
        "state": "",
        "country": "Russia",
        "latitude": 64.6863136,
        "longitude": 97.7453061
    },
    {
        "city": "Lansing",
        "state": "Michigan",
        "country": "USA",
        "latitude": 42.7337712,
        "longitude": -84.5553805
    },
    {
        "city": "Lucknow",
        "state": "Uttar Pradesh",
        "country": "India",
        "latitude": 26.8381,
        "longitude": 80.9346001
    }
]